{
"type": "FeatureCollection",
"name": "Talanga_Puntos_turisticos",
"crs": { "type": "name", "properties": { "name": "urn:ogc:def:crs:OGC:1.3:CRS84" } },
"features": [
{ "type": "Feature", "properties": { "Name": "Restaurante Sabor Costeño", "Tipo": "Restaurantes", "CoorY": 14.417, "CoorX": -87.08, "Municipio": "Talanga", "Departamento": "Francisco Morazán", "Fuente": "Google by maps" }, "geometry": { "type": "Point", "coordinates": [ -87.080447, 14.4169059 ] } },
{ "type": "Feature", "properties": { "Name": "Asados La Piña", "Tipo": "Restaurantes", "CoorY": 14.406, "CoorX": -87.078, "Municipio": "Talanga", "Departamento": "Francisco Morazán", "Fuente": "Google by maps" }, "geometry": { "type": "Point", "coordinates": [ -87.0779171, 14.4064432 ] } },
{ "type": "Feature", "properties": { "Name": "Restaurante SIKISA", "Tipo": "Restaurantes", "CoorY": 14.402, "CoorX": -87.08, "Municipio": "Talanga", "Departamento": "Francisco Morazán", "Fuente": "Google by maps" }, "geometry": { "type": "Point", "coordinates": [ -87.0803162, 14.4018672 ] } },
{ "type": "Feature", "properties": { "Name": "Restaurante Wa Mei", "Tipo": "Restaurantes", "CoorY": 14.407, "CoorX": -87.077, "Municipio": "Talanga", "Departamento": "Francisco Morazán", "Fuente": "Google by maps" }, "geometry": { "type": "Point", "coordinates": [ -87.0774422, 14.4069279 ] } },
{ "type": "Feature", "properties": { "Name": "Pollolandia Talanga #4", "Tipo": "Restaurantes", "CoorY": 14.407, "CoorX": -87.078, "Municipio": "Talanga", "Departamento": "Francisco Morazán", "Fuente": "Google by maps" }, "geometry": { "type": "Point", "coordinates": [ -87.0778909, 14.4070378 ] } },
{ "type": "Feature", "properties": { "Name": "Pollolandia Talanga #3", "Tipo": "Restaurantes", "CoorY": 14.405, "CoorX": -87.08, "Municipio": "Talanga", "Departamento": "Francisco Morazán", "Fuente": "Google by maps" }, "geometry": { "type": "Point", "coordinates": [ -87.0799411, 14.4046321 ] } },
{ "type": "Feature", "properties": { "Name": "Restaurante Yen Yen", "Tipo": "Restaurantes", "CoorY": 14.4, "CoorX": -87.082, "Municipio": "Talanga", "Departamento": "Francisco Morazán", "Fuente": "Google by maps" }, "geometry": { "type": "Point", "coordinates": [ -87.0824228, 14.4003751 ] } },
{ "type": "Feature", "properties": { "Name": "Del Sarten a Su Mesa", "Tipo": "Restaurantes", "CoorY": 14.408, "CoorX": -87.081, "Municipio": "Talanga", "Departamento": "Francisco Morazán", "Fuente": "Google by maps" }, "geometry": { "type": "Point", "coordinates": [ -87.0806566, 14.4081754 ] } },
{ "type": "Feature", "properties": { "Name": "Jaque Mate", "Tipo": "Restaurantes", "CoorY": 14.4, "CoorX": -87.083, "Municipio": "Talanga", "Departamento": "Francisco Morazán", "Fuente": "Google by maps" }, "geometry": { "type": "Point", "coordinates": [ -87.0828515, 14.3995337 ] } },
{ "type": "Feature", "properties": { "Name": "Tito's Wings", "Tipo": "Restaurantes", "CoorY": 14.414, "CoorX": -87.081, "Municipio": "Talanga", "Departamento": "Francisco Morazán", "Fuente": "Google by maps" }, "geometry": { "type": "Point", "coordinates": [ -87.0808449, 14.4144748 ] } },
{ "type": "Feature", "properties": { "Name": "Turicentro Ranchosol", "Tipo": "Restaurantes", "CoorY": 14.433, "CoorX": -87.051, "Municipio": "Talanga", "Departamento": "Francisco Morazán", "Fuente": "Google by maps" }, "geometry": { "type": "Point", "coordinates": [ -87.0509644, 14.432598 ] } },
{ "type": "Feature", "properties": { "Name": "Hacienda Real Molina", "Tipo": "Hoteles", "CoorY": 14.441, "CoorX": -87.075, "Municipio": "Talanga", "Departamento": "Francisco Morazán", "Fuente": "Google by maps" }, "geometry": { "type": "Point", "coordinates": [ -87.074924, 14.4407431 ] } },
{ "type": "Feature", "properties": { "Name": "Automotel miami", "Tipo": "Hoteles", "CoorY": 14.416, "CoorX": -87.107, "Municipio": "Talanga", "Departamento": "Francisco Morazán", "Fuente": "Google by maps" }, "geometry": { "type": "Point", "coordinates": [ -87.1069559, 14.4161359 ] } },
{ "type": "Feature", "properties": { "Name": "Ramírez Chávez", "Tipo": "Hoteles", "CoorY": 14.394, "CoorX": -87.105, "Municipio": "Talanga", "Departamento": "Francisco Morazán", "Fuente": "Google by maps" }, "geometry": { "type": "Point", "coordinates": [ -87.1053449, 14.3942863 ] } },
{ "type": "Feature", "properties": { "Name": "Comedor y Pulpería Dorian", "Tipo": "Restaurantes", "CoorY": 14.385, "CoorX": -87.135, "Municipio": "Talanga", "Departamento": "Francisco Morazán", "Fuente": "Google by maps" }, "geometry": { "type": "Point", "coordinates": [ -87.1347274, 14.3851575 ] } },
{ "type": "Feature", "properties": { "Name": "Restaurante El Paso", "Tipo": "Restaurantes", "CoorY": 14.396, "CoorX": -87.127, "Municipio": "Talanga", "Departamento": "Francisco Morazán", "Fuente": "Google by maps" }, "geometry": { "type": "Point", "coordinates": [ -87.1271838, 14.3959359 ] } },
{ "type": "Feature", "properties": { "Name": "Eco-Hotel y Cabañas La Granja", "Tipo": "Hoteles", "CoorY": 14.411, "CoorX": -87.063, "Municipio": "Talanga", "Departamento": "Francisco Morazán", "Fuente": "Google by maps" }, "geometry": { "type": "Point", "coordinates": [ -87.0628489, 14.4109685 ] } },
{ "type": "Feature", "properties": { "Name": "Restaurante Quality Sabor", "Tipo": "Restaurantes", "CoorY": 14.436, "CoorX": -87.018, "Municipio": "Talanga", "Departamento": "Francisco Morazán", "Fuente": "Google by maps" }, "geometry": { "type": "Point", "coordinates": [ -87.0182281, 14.436128 ] } },
{ "type": "Feature", "properties": { "Name": "Turicentro Ranchosol", "Tipo": "Restaurantes", "CoorY": 14.433, "CoorX": -87.051, "Municipio": "Talanga", "Departamento": "Francisco Morazán", "Fuente": "Google by maps" }, "geometry": { "type": "Point", "coordinates": [ -87.0509644, 14.432598 ] } },
{ "type": "Feature", "properties": { "Name": "Lagunas de oxidación Talanga F.M.", "Tipo": "Puntos de interes turistico", "CoorY": 14.43, "CoorX": -87.083, "Municipio": "Talanga", "Departamento": "Francisco Morazán", "Fuente": "Google by maps" }, "geometry": { "type": "Point", "coordinates": [ -87.0827919, 14.429841 ] } },
{ "type": "Feature", "properties": { "Name": "Pizza Hut", "Tipo": "Restaurantes", "CoorY": 14.454, "CoorX": -87.062, "Municipio": "Talanga", "Departamento": "Francisco Morazán", "Fuente": "Google by maps" }, "geometry": { "type": "Point", "coordinates": [ -87.0624261, 14.45411 ] } },
{ "type": "Feature", "properties": { "Name": "Típicos La Kanchita", "Tipo": "Restaurantes", "CoorY": 14.467, "CoorX": -87.07, "Municipio": "Talanga", "Departamento": "Francisco Morazán", "Fuente": "Google by maps" }, "geometry": { "type": "Point", "coordinates": [ -87.0700491, 14.466627 ] } },
{ "type": "Feature", "properties": { "Name": "Restaurante Los Trupillos", "Tipo": "Restaurantes", "CoorY": 14.464, "CoorX": -87.069, "Municipio": "Talanga", "Departamento": "Francisco Morazán", "Fuente": "Google by maps" }, "geometry": { "type": "Point", "coordinates": [ -87.0691606, 14.4639163 ] } },
{ "type": "Feature", "properties": { "Name": "Pollolandia “La Ermita”", "Tipo": "Restaurantes", "CoorY": 14.46, "CoorX": -87.07, "Municipio": "Talanga", "Departamento": "Francisco Morazán", "Fuente": "Google by maps" }, "geometry": { "type": "Point", "coordinates": [ -87.0696761, 14.459586 ] } },
{ "type": "Feature", "properties": { "Name": "Hermita Guadalquibir", "Tipo": "Puntos de interes turistico", "CoorY": 14.426, "CoorX": -87.135, "Municipio": "Talanga", "Departamento": "Francisco Morazán", "Fuente": "Google by maps" }, "geometry": { "type": "Point", "coordinates": [ -87.1351379, 14.4255266 ] } },
{ "type": "Feature", "properties": { "Name": "Centro Recreativo K'lorios", "Tipo": "Restaurantes", "CoorY": 14.441, "CoorX": -87.067, "Municipio": "Talanga", "Departamento": "Francisco Morazán", "Fuente": "Google by maps" }, "geometry": { "type": "Point", "coordinates": [ -87.0670155, 14.4409655 ] } },
{ "type": "Feature", "properties": { "Name": "Casa Rosibel Elvir", "Tipo": "Restaurantes", "CoorY": 14.472, "CoorX": -87.068, "Municipio": "Talanga", "Departamento": "Francisco Morazán", "Fuente": "Google by maps" }, "geometry": { "type": "Point", "coordinates": [ -87.0681969, 14.4721276 ] } },
{ "type": "Feature", "properties": { "Name": "Línea divisoria Cedros FM", "Tipo": "Punto de interes comercial", "CoorY": 14.472, "CoorX": -87.071, "Municipio": "Talanga", "Departamento": "Francisco Morazán", "Fuente": "Google by maps" }, "geometry": { "type": "Point", "coordinates": [ -87.0708745, 14.4723978 ] } },
{ "type": "Feature", "properties": { "Name": "Proyecto Manuelito", "Tipo": "Puntos de interes turistico", "CoorY": 14.396, "CoorX": -87.078, "Municipio": "Talanga", "Departamento": "Francisco Morazán", "Fuente": "Google by maps" }, "geometry": { "type": "Point", "coordinates": [ -87.0781784, 14.396039 ] } },
{ "type": "Feature", "properties": { "Name": "Árbol La Ceiba Talanga", "Tipo": "Puntos de interes turistico", "CoorY": 14.402, "CoorX": -87.084, "Municipio": "Talanga", "Departamento": "Francisco Morazán", "Fuente": "Google by maps" }, "geometry": { "type": "Point", "coordinates": [ -87.0839667, 14.4023801 ] } },
{ "type": "Feature", "properties": { "Name": "Coffee House Talanga F.M", "Tipo": "Restaurantes", "CoorY": 14.403, "CoorX": -87.082, "Municipio": "Talanga", "Departamento": "Francisco Morazán", "Fuente": "Google by maps" }, "geometry": { "type": "Point", "coordinates": [ -87.0819866, 14.4025152 ] } },
{ "type": "Feature", "properties": { "Name": "Miguelita", "Tipo": "Restaurantes", "CoorY": 14.401, "CoorX": -87.081, "Municipio": "Talanga", "Departamento": "Francisco Morazán", "Fuente": "Google by maps" }, "geometry": { "type": "Point", "coordinates": [ -87.0808493, 14.4008804 ] } },
{ "type": "Feature", "properties": { "Name": "Estephany Vidaur", "Tipo": "Hoteles", "CoorY": 14.404, "CoorX": -87.078, "Municipio": "Talanga", "Departamento": "Francisco Morazán", "Fuente": "Google by maps" }, "geometry": { "type": "Point", "coordinates": [ -87.078035, 14.4041453 ] } },
{ "type": "Feature", "properties": { "Name": "Bar y restaurante LA ROKA", "Tipo": "Restaurantes", "CoorY": 14.4, "CoorX": -87.082, "Municipio": "Talanga", "Departamento": "Francisco Morazán", "Fuente": "Google by maps" }, "geometry": { "type": "Point", "coordinates": [ -87.082148, 14.399649 ] } },
{ "type": "Feature", "properties": { "Name": "Golosinas Dania", "Tipo": "Restaurantes", "CoorY": 14.399, "CoorX": -87.079, "Municipio": "Talanga", "Departamento": "Francisco Morazán", "Fuente": "Google by maps" }, "geometry": { "type": "Point", "coordinates": [ -87.0792595, 14.399082 ] } },
{ "type": "Feature", "properties": { "Name": "Vision Fund Honduras OPDF", "Tipo": "Puntos de interes turistico", "CoorY": 14.398, "CoorX": -87.083, "Municipio": "Talanga", "Departamento": "Francisco Morazán", "Fuente": "Google by maps" }, "geometry": { "type": "Point", "coordinates": [ -87.0831658, 14.3983458 ] } },
{ "type": "Feature", "properties": { "Name": "Finca El Rancho La Cuesta", "Tipo": "Restaurantes", "CoorY": 14.388, "CoorX": -87.199, "Municipio": "Talanga", "Departamento": "Francisco Morazán", "Fuente": "Google by maps" }, "geometry": { "type": "Point", "coordinates": [ -87.1985571, 14.3875273 ] } },
{ "type": "Feature", "properties": { "Name": "Café Honoré", "Tipo": "Restaurantes", "CoorY": 14.395, "CoorX": -87.186, "Municipio": "Talanga", "Departamento": "Francisco Morazán", "Fuente": "Google by maps" }, "geometry": { "type": "Point", "coordinates": [ -87.1859605, 14.3953295 ] } },
{ "type": "Feature", "properties": { "Name": "V I L L A - D I F E R", "Tipo": "Puntos de interes turistico", "CoorY": 14.422, "CoorX": -87.088, "Municipio": "Talanga", "Departamento": "Francisco Morazán", "Fuente": "Google by maps" }, "geometry": { "type": "Point", "coordinates": [ -87.0884455, 14.4219486 ] } },
{ "type": "Feature", "properties": { "Name": "Restaurante y Balneario Villa Real", "Tipo": "Restaurantes", "CoorY": 14.417, "CoorX": -87.095, "Municipio": "Talanga", "Departamento": "Francisco Morazán", "Fuente": "Google by maps" }, "geometry": { "type": "Point", "coordinates": [ -87.0948011, 14.4169558 ] } },
{ "type": "Feature", "properties": { "Name": "La Casa de Pollo Rey", "Tipo": "Restaurantes", "CoorY": 14.412, "CoorX": -87.08, "Municipio": "Talanga", "Departamento": "Francisco Morazán", "Fuente": "Google by maps" }, "geometry": { "type": "Point", "coordinates": [ -87.0798919, 14.4122426 ] } },
{ "type": "Feature", "properties": { "Name": "Abarroteria San francisco", "Tipo": "Abastecimiento", "CoorY": 14.413, "CoorX": -87.079, "Municipio": "Talanga", "Departamento": "Francisco Morazán", "Fuente": "Google by maps" }, "geometry": { "type": "Point", "coordinates": [ -87.0792544, 14.4127553 ] } },
{ "type": "Feature", "properties": { "Name": "Hotel Cristina", "Tipo": "Hoteles", "CoorY": 14.418, "CoorX": -87.087, "Municipio": "Talanga", "Departamento": "Francisco Morazán", "Fuente": "Google by maps" }, "geometry": { "type": "Point", "coordinates": [ -87.0865895, 14.4184714 ] } },
{ "type": "Feature", "properties": { "Name": "Café Taviani Gran Plaza", "Tipo": "Restaurantes", "CoorY": 14.419, "CoorX": -87.08, "Municipio": "Talanga", "Departamento": "Francisco Morazán", "Fuente": "Google by maps" }, "geometry": { "type": "Point", "coordinates": [ -87.0798526, 14.41909 ] } },
{ "type": "Feature", "properties": { "Name": "COHOPRODI", "Tipo": "Restaurantes", "CoorY": 14.421, "CoorX": -87.061, "Municipio": "Talanga", "Departamento": "Francisco Morazán", "Fuente": "Google by maps" }, "geometry": { "type": "Point", "coordinates": [ -87.0608899, 14.4211945 ] } },
{ "type": "Feature", "properties": { "Name": "Abarroteria Genesis", "Tipo": "Abastecimiento", "CoorY": 14.417, "CoorX": -87.072, "Municipio": "Talanga", "Departamento": "Francisco Morazán", "Fuente": "Google by maps" }, "geometry": { "type": "Point", "coordinates": [ -87.071792, 14.4171514 ] } },
{ "type": "Feature", "properties": { "Name": "TRACOMA, Talanga", "Tipo": "Puntos de interes turistico", "CoorY": 14.417, "CoorX": -87.096, "Municipio": "Talanga", "Departamento": "Francisco Morazán", "Fuente": "Google by maps" }, "geometry": { "type": "Point", "coordinates": [ -87.0960259, 14.4166837 ] } },
{ "type": "Feature", "properties": { "Name": "GASOLINERA UNO SAN JOSE DE BUENA VISTA", "Tipo": "Gasolinera", "CoorY": 14.443, "CoorX": -87.067, "Municipio": "Talanga", "Departamento": "Francisco Morazán", "Fuente": "Google by maps" }, "geometry": { "type": "Point", "coordinates": [ -87.0674215, 14.4432139 ] } },
{ "type": "Feature", "properties": { "Name": "Comercial La Trinidad", "Tipo": "Punto de interes comercial", "CoorY": 14.434, "CoorX": -87.02, "Municipio": "Talanga", "Departamento": "Francisco Morazán", "Fuente": "Google by maps" }, "geometry": { "type": "Point", "coordinates": [ -87.0204282, 14.4339299 ] } },
{ "type": "Feature", "properties": { "Name": "Campamento MANACHEK", "Tipo": "Restaurantes", "CoorY": 14.455, "CoorX": -87.003, "Municipio": "Talanga", "Departamento": "Francisco Morazán", "Fuente": "Google by maps" }, "geometry": { "type": "Point", "coordinates": [ -87.0032782, 14.4551014 ] } },
{ "type": "Feature", "properties": { "Name": "Carnitas y Golosinas Mari", "Tipo": "Restaurantes", "CoorY": 14.473, "CoorX": -86.984, "Municipio": "Talanga", "Departamento": "Francisco Morazán", "Fuente": "Google by maps" }, "geometry": { "type": "Point", "coordinates": [ -86.9838581, 14.4733526 ] } },
{ "type": "Feature", "properties": { "Name": "Tipico La Canchita", "Tipo": "Restaurantes", "CoorY": 14.36, "CoorX": -87.079, "Municipio": "Talanga", "Departamento": "Francisco Morazán", "Fuente": "Google by maps" }, "geometry": { "type": "Point", "coordinates": [ -87.0793436, 14.3598715 ] } },
{ "type": "Feature", "properties": { "Name": "Hotel La Fuente D&D", "Tipo": "Hoteles", "CoorY": 14.409, "CoorX": -87.078, "Municipio": "Talanga", "Departamento": "Francisco Morazán", "Fuente": "Google by maps" }, "geometry": { "type": "Point", "coordinates": [ -87.0780122, 14.4092765 ] } },
{ "type": "Feature", "properties": { "Name": "UNO SAN DIEGO", "Tipo": "Gasolinera", "CoorY": 14.411, "CoorX": -87.079, "Municipio": "Talanga", "Departamento": "Francisco Morazán", "Fuente": "Google by maps" }, "geometry": { "type": "Point", "coordinates": [ -87.0794157, 14.4109063 ] } },
{ "type": "Feature", "properties": { "Name": "Gasolinera Puma", "Tipo": "Gasolinera", "CoorY": 14.418, "CoorX": -87.08, "Municipio": "Talanga", "Departamento": "Francisco Morazán", "Fuente": "Google by maps" }, "geometry": { "type": "Point", "coordinates": [ -87.0804118, 14.4183109 ] } },
{ "type": "Feature", "properties": { "Name": "La Escondida", "Tipo": "Restaurantes", "CoorY": 14.397, "CoorX": -87.081, "Municipio": "Talanga", "Departamento": "Francisco Morazán", "Fuente": "Google by maps" }, "geometry": { "type": "Point", "coordinates": [ -87.0813261, 14.3972491 ] } }
]
}
